- name:  CrossFit Infinite Strength
  latitude: 33.557061
  longitude: -111.887550
  radius: 50
  icon: mdi:weight-kilogram

- name:  New Valley Church
  latitude: 33.307875
  longitude: -111.977550
  radius: 75
  icon: mdi:church

- name: Basha's Grocery
  latitude: 33.522665
  longitude: -111.899078
  radius: 75
  icon: mdi:store

- name: Sally's House
  latitude: 33.504765
  longitude: -111.914867
  radius: 30
  icon: mdi:home

- name: September's House
  latitude: 33.561837
  longitude: -112.055447
  radius: 30
  icon: mdi:home

- name: Costco Scottsdale
  latitude: 33.622948
  longitude: -111.900721
  radius: 100
  icon: mdi:store

- name: Costco Paradise Valley Mall
  latitude: 33.603524
  longitude: -111.985865
  radius: 100
  icon: mdi:store
